{
  "version": 1,
  "generatedAt": "2026-05-31T20:07:23.758Z",
  "monasteryCount": 72,
  "jurisdictions": [
    {
      "code": "goa",
      "label": "Greek Orthodox Archdiocese of America",
      "count": 21
    },
    {
      "code": "oca",
      "label": "Orthodox Church in America",
      "count": 17
    },
    {
      "code": "roc",
      "label": "Russian Orthodox Church Outside of Russia",
      "count": 17
    },
    {
      "code": "ser",
      "label": "Serbian Orthodox Church in North, Central and South America",
      "count": 11
    },
    {
      "code": "ant",
      "label": "Antiochian Orthodox Christian Archdiocese of North America",
      "count": 2
    },
    {
      "code": "bgr",
      "label": "Bulgarian Eastern Orthodox Diocese of the USA, Canada, and Australia",
      "count": 2
    },
    {
      "code": "geo",
      "label": "Georgian Apostolic Orthodox Church in North America",
      "count": 1
    },
    {
      "code": "rom",
      "label": "Romanian Orthodox Metropolia of the Americas",
      "count": 1
    }
  ],
  "communityTypes": [
    {
      "type": "female",
      "count": 38
    },
    {
      "type": "male",
      "count": 34
    }
  ],
  "monasteries": [
    {
      "id": "ant:ks-monastery-of-st-silouan-the-athonite-wichita",
      "slug": "monastery-of-st-silouan-the-athonite-wichita",
      "name": "Monastery of St Silouan the Athonite",
      "jurisdiction": "ant",
      "jurisdictionLabel": "Antiochian Orthodox Christian Archdiocese of North America",
      "communityType": "male",
      "city": "Wichita",
      "state": "KS",
      "country": "US",
      "lat": 37.708156,
      "lng": -97.251937
    },
    {
      "id": "ant:pa-st-thekla-convent-glenville",
      "slug": "st-thekla-convent-glenville",
      "name": "St. Thekla Convent",
      "jurisdiction": "ant",
      "jurisdictionLabel": "Antiochian Orthodox Christian Archdiocese of North America",
      "communityType": "female",
      "city": "Glenville",
      "state": "PA",
      "country": "US",
      "lat": 39.7563728,
      "lng": -76.8809221
    },
    {
      "id": "bgr:ma-st-john-the-baptist-monastery-warwick",
      "slug": "st-john-the-baptist-monastery-warwick",
      "name": "St. John the Baptist Monastery",
      "jurisdiction": "bgr",
      "jurisdictionLabel": "Bulgarian Eastern Orthodox Diocese of the USA, Canada, and Australia",
      "communityType": "male",
      "city": "Warwick",
      "state": "MA",
      "country": "US",
      "lat": 42.69275,
      "lng": -72.38047
    },
    {
      "id": "bgr:va-st-dumitru-monastery-palmyra",
      "slug": "st-dumitru-monastery-palmyra",
      "name": "St. Dumitru Monastery",
      "jurisdiction": "bgr",
      "jurisdictionLabel": "Bulgarian Eastern Orthodox Diocese of the USA, Canada, and Australia",
      "communityType": "male",
      "city": "Palmyra",
      "state": "VA",
      "country": "US",
      "lat": 37.867458,
      "lng": -78.261965
    },
    {
      "id": "geo:pa-st-king-david-the-builder-monastery-hanover",
      "slug": "st-king-david-the-builder-monastery-hanover",
      "name": "St. King David the Builder Monastery",
      "jurisdiction": "geo",
      "jurisdictionLabel": "Georgian Apostolic Orthodox Church in North America",
      "communityType": "female",
      "city": "Hanover",
      "state": "PA",
      "country": "US",
      "lat": 39.805562523,
      "lng": -76.983091792
    },
    {
      "id": "goa:az-st-anthony-monastery-florence",
      "slug": "st-anthony-monastery-florence",
      "name": "St. Anthony Monastery",
      "jurisdiction": "goa",
      "jurisdictionLabel": "Greek Orthodox Archdiocese of America",
      "communityType": "male",
      "city": "Florence",
      "state": "AZ",
      "country": "US",
      "lat": 32.91863,
      "lng": -111.26435
    },
    {
      "id": "goa:ca-holy-theotokos-of-the-life-giving-spring-monastery-dunlap",
      "slug": "holy-theotokos-of-the-life-giving-spring-monastery-dunlap",
      "name": "Holy Theotokos of the Life-Giving Spring Monastery",
      "jurisdiction": "goa",
      "jurisdictionLabel": "Greek Orthodox Archdiocese of America",
      "communityType": "female",
      "city": "Dunlap",
      "state": "CA",
      "country": "US",
      "lat": 36.752059,
      "lng": -119.1313167
    },
    {
      "id": "goa:co-nativity-of-st-john-the-baptist-denver",
      "slug": "nativity-of-st-john-the-baptist-denver",
      "name": "Nativity of St. John the Baptist",
      "jurisdiction": "goa",
      "jurisdictionLabel": "Greek Orthodox Archdiocese of America",
      "communityType": "male",
      "city": "Denver",
      "state": "CO",
      "country": "US",
      "lat": 39.66611,
      "lng": -104.92853
    },
    {
      "id": "goa:fl-holy-annunciation-monastery-reddick",
      "slug": "holy-annunciation-monastery-reddick",
      "name": "Holy Annunciation Monastery",
      "jurisdiction": "goa",
      "jurisdictionLabel": "Greek Orthodox Archdiocese of America",
      "communityType": "female",
      "city": "Reddick",
      "state": "FL",
      "country": "US",
      "lat": 29.348608,
      "lng": -82.257637
    },
    {
      "id": "goa:fl-holy-monastery-of-panagia-vlahernon-williston",
      "slug": "holy-monastery-of-panagia-vlahernon-williston",
      "name": "Holy Monastery of Panagia Vlahernon",
      "jurisdiction": "goa",
      "jurisdictionLabel": "Greek Orthodox Archdiocese of America",
      "communityType": "male",
      "city": "Williston",
      "state": "FL",
      "country": "US",
      "lat": 29.40349,
      "lng": -82.37375
    },
    {
      "id": "goa:il-holy-transfiguration-monastery-harvard",
      "slug": "holy-transfiguration-monastery-harvard",
      "name": "Holy Transfiguration Monastery",
      "jurisdiction": "goa",
      "jurisdictionLabel": "Greek Orthodox Archdiocese of America",
      "communityType": "male",
      "city": "Harvard",
      "state": "IL",
      "country": "US",
      "lat": 42.42203,
      "lng": -88.61249
    },
    {
      "id": "goa:mi-holy-trinity-monastery-smith-creek",
      "slug": "holy-trinity-monastery-smith-creek",
      "name": "Holy Trinity Monastery",
      "jurisdiction": "goa",
      "jurisdictionLabel": "Greek Orthodox Archdiocese of America",
      "communityType": "male",
      "city": "Smith Creek",
      "state": "MI",
      "country": "US",
      "lat": 42.90611,
      "lng": -82.58623
    },
    {
      "id": "goa:nc-holy-convent-of-panagia-prousiotissa-troy",
      "slug": "holy-convent-of-panagia-prousiotissa-troy",
      "name": "Holy Convent of Panagia Prousiotissa",
      "jurisdiction": "goa",
      "jurisdictionLabel": "Greek Orthodox Archdiocese of America",
      "communityType": "female",
      "city": "Troy",
      "state": "NC",
      "country": "US",
      "lat": 35.3525878,
      "lng": -79.9163718
    },
    {
      "id": "goa:nc-holy-monastery-of-panagia-pammakaristou-lawsonville",
      "slug": "holy-monastery-of-panagia-pammakaristou-lawsonville",
      "name": "Holy Monastery of Panagia Pammakaristou",
      "jurisdiction": "goa",
      "jurisdictionLabel": "Greek Orthodox Archdiocese of America",
      "communityType": "male",
      "city": "Lawsonville",
      "state": "NC",
      "country": "US",
      "lat": 36.5407097,
      "lng": -80.2696673
    },
    {
      "id": "goa:ny-all-saints-monastery-calverton",
      "slug": "all-saints-monastery-calverton",
      "name": "All Saints Monastery",
      "jurisdiction": "goa",
      "jurisdictionLabel": "Greek Orthodox Archdiocese of America",
      "communityType": "female",
      "city": "Calverton",
      "state": "NY",
      "country": "US",
      "lat": 40.930651,
      "lng": -72.721109
    },
    {
      "id": "goa:ny-st-nektarios-monastery-roscoe",
      "slug": "st-nektarios-monastery-roscoe",
      "name": "St. Nektarios Monastery",
      "jurisdiction": "goa",
      "jurisdictionLabel": "Greek Orthodox Archdiocese of America",
      "communityType": "male",
      "city": "Roscoe",
      "state": "NY",
      "country": "US",
      "lat": 41.871953,
      "lng": -74.9586492
    },
    {
      "id": "goa:oh-entrance-of-the-theotokos-skete-hayesville",
      "slug": "entrance-of-the-theotokos-skete-hayesville",
      "name": "Entrance of the Theotokos Skete",
      "jurisdiction": "goa",
      "jurisdictionLabel": "Greek Orthodox Archdiocese of America",
      "communityType": "female",
      "city": "Hayesville",
      "state": "OH",
      "country": "US",
      "lat": 40.773189545,
      "lng": -82.26210022
    },
    {
      "id": "goa:oh-st-gregory-palamas-monastery-perrysville",
      "slug": "st-gregory-palamas-monastery-perrysville",
      "name": "St. Gregory Palamas Monastery",
      "jurisdiction": "goa",
      "jurisdictionLabel": "Greek Orthodox Archdiocese of America",
      "communityType": "male",
      "city": "Perrysville",
      "state": "OH",
      "country": "US",
      "lat": 40.7327928,
      "lng": -82.3050313
    },
    {
      "id": "goa:oh-st-mary-of-egypt-orthodox-convent-cleveland",
      "slug": "st-mary-of-egypt-orthodox-convent-cleveland",
      "name": "St. Mary of Egypt Orthodox Convent",
      "jurisdiction": "goa",
      "jurisdictionLabel": "Greek Orthodox Archdiocese of America",
      "communityType": "female",
      "city": "Cleveland",
      "state": "OH",
      "country": "US",
      "lat": 41.50554657,
      "lng": -81.691497803
    },
    {
      "id": "goa:pa-holy-protection-convent-white-haven",
      "slug": "holy-protection-convent-white-haven",
      "name": "Holy Protection Convent",
      "jurisdiction": "goa",
      "jurisdictionLabel": "Greek Orthodox Archdiocese of America",
      "communityType": "female",
      "city": "White Haven",
      "state": "PA",
      "country": "US",
      "lat": 41.0516015,
      "lng": -75.7795541
    },
    {
      "id": "goa:pa-nativity-of-the-theotokos-monastery-saxonburg",
      "slug": "nativity-of-the-theotokos-monastery-saxonburg",
      "name": "Nativity of the Theotokos Monastery",
      "jurisdiction": "goa",
      "jurisdictionLabel": "Greek Orthodox Archdiocese of America",
      "communityType": "female",
      "city": "Saxonburg",
      "state": "PA",
      "country": "US",
      "lat": 40.7488335,
      "lng": -79.8718133
    },
    {
      "id": "goa:sc-paracletos-greek-orthodox-monastery-abbeville",
      "slug": "paracletos-greek-orthodox-monastery-abbeville",
      "name": "Paracletos Greek Orthodox Monastery",
      "jurisdiction": "goa",
      "jurisdictionLabel": "Greek Orthodox Archdiocese of America",
      "communityType": "female",
      "city": "Abbeville",
      "state": "SC",
      "country": "US",
      "lat": 34.300769,
      "lng": -82.563826
    },
    {
      "id": "goa:tx-holy-archangels-monastery-kendalia",
      "slug": "holy-archangels-monastery-kendalia",
      "name": "Holy Archangels Monastery",
      "jurisdiction": "goa",
      "jurisdictionLabel": "Greek Orthodox Archdiocese of America",
      "communityType": "male",
      "city": "Kendalia",
      "state": "TX",
      "country": "US",
      "lat": 29.96988678,
      "lng": -98.52469635
    },
    {
      "id": "goa:tx-saint-paraskevi-greek-orthodox-monastery-washington",
      "slug": "saint-paraskevi-greek-orthodox-monastery-washington",
      "name": "Saint Paraskevi Greek Orthodox Monastery",
      "jurisdiction": "goa",
      "jurisdictionLabel": "Greek Orthodox Archdiocese of America",
      "communityType": "female",
      "city": "Washington",
      "state": "TX",
      "country": "US",
      "lat": 30.307127,
      "lng": -96.228515
    },
    {
      "id": "goa:wa-st-john-the-forerunner-monastery-goldendale",
      "slug": "st-john-the-forerunner-monastery-goldendale",
      "name": "St. John the Forerunner Monastery",
      "jurisdiction": "goa",
      "jurisdictionLabel": "Greek Orthodox Archdiocese of America",
      "communityType": "female",
      "city": "Goldendale",
      "state": "WA",
      "country": "US",
      "lat": 45.942253,
      "lng": -120.6781168
    },
    {
      "id": "goa:wi-holy-monastery-of-st-john-chrysostom-pleasant-prairie",
      "slug": "holy-monastery-of-st-john-chrysostom-pleasant-prairie",
      "name": "Holy Monastery of St. John Chrysostom",
      "jurisdiction": "goa",
      "jurisdictionLabel": "Greek Orthodox Archdiocese of America",
      "communityType": "female",
      "city": "Pleasant Prairie",
      "state": "WI",
      "country": "US",
      "lat": 42.538527,
      "lng": -87.862028
    },
    {
      "id": "oca:ca-holy-assumption-monastery-calistoga",
      "slug": "holy-assumption-monastery-calistoga",
      "name": "Holy Assumption Monastery",
      "jurisdiction": "oca",
      "jurisdictionLabel": "Orthodox Church in America",
      "communityType": "female",
      "city": "Calistoga",
      "state": "CA",
      "country": "US",
      "lat": 38.580103,
      "lng": -122.582908
    },
    {
      "id": "oca:ca-holy-cross-monastery-castro-valley",
      "slug": "holy-cross-monastery-castro-valley",
      "name": "Holy Cross Monastery",
      "jurisdiction": "oca",
      "jurisdictionLabel": "Orthodox Church in America",
      "communityType": "male",
      "city": "Castro Valley",
      "state": "CA",
      "country": "US",
      "lat": 37.633386,
      "lng": -121.951
    },
    {
      "id": "oca:ca-monastery-of-st-john-of-san-francisco-manton",
      "slug": "monastery-of-st-john-of-san-francisco-manton",
      "name": "Monastery of St. John of San Francisco",
      "jurisdiction": "oca",
      "jurisdictionLabel": "Orthodox Church in America",
      "communityType": "male",
      "city": "Manton",
      "state": "CA",
      "country": "US",
      "lat": 40.432817,
      "lng": -121.810989
    },
    {
      "id": "oca:ca-our-lady-of-kazan-skete-santa-rosa",
      "slug": "our-lady-of-kazan-skete-santa-rosa",
      "name": "Our Lady of Kazan Skete",
      "jurisdiction": "oca",
      "jurisdictionLabel": "Orthodox Church in America",
      "communityType": "female",
      "city": "Santa Rosa",
      "state": "CA",
      "country": "US",
      "lat": 38.4106799,
      "lng": -122.7223658
    },
    {
      "id": "oca:ca-st-barbara-monastery-santa-paula",
      "slug": "st-barbara-monastery-santa-paula",
      "name": "St. Barbara Monastery",
      "jurisdiction": "oca",
      "jurisdictionLabel": "Orthodox Church in America",
      "communityType": "female",
      "city": "Santa Paula",
      "state": "CA",
      "country": "US",
      "lat": 34.427562,
      "lng": -119.094128
    },
    {
      "id": "oca:co-monastery-of-the-protection-of-the-holy-virgin-lake-george",
      "slug": "monastery-of-the-protection-of-the-holy-virgin-lake-george",
      "name": "Monastery of the Protection of the Holy Virgin",
      "jurisdiction": "oca",
      "jurisdictionLabel": "Orthodox Church in America",
      "communityType": "female",
      "city": "Lake George",
      "state": "CO",
      "country": "US",
      "lat": 38.8867037,
      "lng": -105.3740757
    },
    {
      "id": "oca:mi-dormition-of-the-mother-of-god-monastery-rives-junction",
      "slug": "dormition-of-the-mother-of-god-monastery-rives-junction",
      "name": "Dormition of the Mother of God Monastery",
      "jurisdiction": "oca",
      "jurisdictionLabel": "Orthodox Church in America",
      "communityType": "female",
      "city": "Rives Junction",
      "state": "MI",
      "country": "US",
      "lat": 42.383258,
      "lng": -84.453678
    },
    {
      "id": "oca:mi-the-ascension-of-the-lord-monastery-clinton",
      "slug": "the-ascension-of-the-lord-monastery-clinton",
      "name": "The Ascension of the Lord Monastery",
      "jurisdiction": "oca",
      "jurisdictionLabel": "Orthodox Church in America",
      "communityType": "male",
      "city": "Clinton",
      "state": "MI",
      "country": "US",
      "lat": 42.091124,
      "lng": -84.0083963
    },
    {
      "id": "oca:mo-presentation-of-the-virgin-mary-monastery-marshfield",
      "slug": "presentation-of-the-virgin-mary-monastery-marshfield",
      "name": "Presentation of the Virgin Mary Monastery",
      "jurisdiction": "oca",
      "jurisdictionLabel": "Orthodox Church in America",
      "communityType": "female",
      "city": "Marshfield",
      "state": "MO",
      "country": "US",
      "lat": 37.330665588,
      "lng": -92.912750244
    },
    {
      "id": "oca:nm-monastery-of-the-holy-archangel-michael-canones",
      "slug": "monastery-of-the-holy-archangel-michael-canones",
      "name": "Monastery of the Holy Archangel Michael",
      "jurisdiction": "oca",
      "jurisdictionLabel": "Orthodox Church in America",
      "communityType": "male",
      "city": "Canones",
      "state": "NM",
      "country": "US",
      "lat": 36.187675476,
      "lng": -106.438858032
    },
    {
      "id": "oca:ny-holy-myrrhbearers-monastery-otego",
      "slug": "holy-myrrhbearers-monastery-otego",
      "name": "Holy Myrrhbearers Monastery",
      "jurisdiction": "oca",
      "jurisdictionLabel": "Orthodox Church in America",
      "communityType": "female",
      "city": "Otego",
      "state": "NY",
      "country": "US",
      "lat": 42.4881048,
      "lng": -75.1766672
    },
    {
      "id": "oca:ny-monks-of-new-skete-cambridge",
      "slug": "monks-of-new-skete-cambridge",
      "name": "Monks of New Skete",
      "jurisdiction": "oca",
      "jurisdictionLabel": "Orthodox Church in America",
      "communityType": "male",
      "city": "Cambridge",
      "state": "NY",
      "country": "US",
      "lat": 43.025303,
      "lng": -73.351803
    },
    {
      "id": "oca:ny-new-skete-cambridge",
      "slug": "new-skete-cambridge",
      "name": "New Skete",
      "jurisdiction": "oca",
      "jurisdictionLabel": "Orthodox Church in America",
      "communityType": "female",
      "city": "Cambridge",
      "state": "NY",
      "country": "US",
      "lat": 43.025303,
      "lng": -73.351803
    },
    {
      "id": "oca:pa-holy-transfiguration-monastery-ellwood-city",
      "slug": "holy-transfiguration-monastery-ellwood-city",
      "name": "Holy Transfiguration Monastery",
      "jurisdiction": "oca",
      "jurisdictionLabel": "Orthodox Church in America",
      "communityType": "female",
      "city": "Ellwood City",
      "state": "PA",
      "country": "US",
      "lat": 40.865261,
      "lng": -80.2386763
    },
    {
      "id": "oca:pa-st-tikhon-of-zadonsk-monastery-south-canaan",
      "slug": "st-tikhon-of-zadonsk-monastery-south-canaan",
      "name": "St. Tikhon of Zadonsk Monastery",
      "jurisdiction": "oca",
      "jurisdictionLabel": "Orthodox Church in America",
      "communityType": "male",
      "city": "South Canaan",
      "state": "PA",
      "country": "US",
      "lat": 41.5146578,
      "lng": -75.4024403
    },
    {
      "id": "oca:sc-ss-mary-and-martha-monastery-wagener",
      "slug": "ss-mary-and-martha-monastery-wagener",
      "name": "SS Mary and Martha Monastery",
      "jurisdiction": "oca",
      "jurisdictionLabel": "Orthodox Church in America",
      "communityType": "female",
      "city": "Wagener",
      "state": "SC",
      "country": "US",
      "lat": 33.6968037,
      "lng": -81.3652335
    },
    {
      "id": "oca:tx-nativity-of-our-lord-monastery-kemp",
      "slug": "nativity-of-our-lord-monastery-kemp",
      "name": "Nativity of our Lord Monastery",
      "jurisdiction": "oca",
      "jurisdictionLabel": "Orthodox Church in America",
      "communityType": "female",
      "city": "Kemp",
      "state": "TX",
      "country": "US",
      "lat": 32.394443,
      "lng": -96.2998666
    },
    {
      "id": "roc:az-holy-stavropegial-monastery-of-st-anthony-the-great-phoenix",
      "slug": "holy-stavropegial-monastery-of-st-anthony-the-great-phoenix",
      "name": "Holy Stavropegial Monastery of St Anthony the Great",
      "jurisdiction": "roc",
      "jurisdictionLabel": "Russian Orthodox Church Outside of Russia",
      "communityType": "male",
      "city": "Phoenix",
      "state": "AZ",
      "country": "US",
      "lat": 33.483842,
      "lng": -112.023998
    },
    {
      "id": "roc:az-st-paisius-monastery-safford",
      "slug": "st-paisius-monastery-safford",
      "name": "St. Paisius Monastery",
      "jurisdiction": "roc",
      "jurisdictionLabel": "Russian Orthodox Church Outside of Russia",
      "communityType": "female",
      "city": "Safford",
      "state": "AZ",
      "country": "US",
      "lat": 32.6995454,
      "lng": -109.6797041
    },
    {
      "id": "roc:fl-our-lady-of-mount-royal-holyrood-jacksonville",
      "slug": "our-lady-of-mount-royal-holyrood-jacksonville",
      "name": "Our Lady of Mount Royal \"Holyrood\"",
      "jurisdiction": "roc",
      "jurisdictionLabel": "Russian Orthodox Church Outside of Russia",
      "communityType": "male",
      "city": "Jacksonville",
      "state": "FL",
      "country": "US",
      "lat": 30.305694,
      "lng": -81.704746
    },
    {
      "id": "roc:fl-st-nicholas-monastery-north-fort-myers",
      "slug": "st-nicholas-monastery-north-fort-myers",
      "name": "St. Nicholas Monastery",
      "jurisdiction": "roc",
      "jurisdictionLabel": "Russian Orthodox Church Outside of Russia",
      "communityType": "female",
      "city": "North Fort Myers",
      "state": "FL",
      "country": "US",
      "lat": 26.671647,
      "lng": -81.888539
    },
    {
      "id": "roc:ga-glorious-ascension-monastery-resaca",
      "slug": "glorious-ascension-monastery-resaca",
      "name": "Glorious Ascension Monastery",
      "jurisdiction": "roc",
      "jurisdictionLabel": "Russian Orthodox Church Outside of Russia",
      "communityType": "female",
      "city": "Resaca",
      "state": "GA",
      "country": "US",
      "lat": 34.599349976,
      "lng": -84.912399292
    },
    {
      "id": "roc:mi-monastery-of-st-sabbas-harper-woods",
      "slug": "monastery-of-st-sabbas-harper-woods",
      "name": "Monastery of St. Sabbas",
      "jurisdiction": "roc",
      "jurisdictionLabel": "Russian Orthodox Church Outside of Russia",
      "communityType": "male",
      "city": "Harper Woods",
      "state": "MI",
      "country": "US",
      "lat": 42.441371,
      "lng": -82.944282
    },
    {
      "id": "roc:mn-resurrection-of-christ-church-and-skete-fridley",
      "slug": "resurrection-of-christ-church-and-skete-fridley",
      "name": "Resurrection of Christ Church and Skete",
      "jurisdiction": "roc",
      "jurisdictionLabel": "Russian Orthodox Church Outside of Russia",
      "communityType": "male",
      "city": "Fridley",
      "state": "MN",
      "country": "US",
      "lat": 45.071459,
      "lng": -93.239079
    },
    {
      "id": "roc:ny-convent-of-st-elizabeth-jordanville",
      "slug": "convent-of-st-elizabeth-jordanville",
      "name": "Convent of St. Elizabeth",
      "jurisdiction": "roc",
      "jurisdictionLabel": "Russian Orthodox Church Outside of Russia",
      "communityType": "female",
      "city": "Jordanville",
      "state": "NY",
      "country": "US",
      "lat": 42.9175753,
      "lng": -74.9340055
    },
    {
      "id": "roc:ny-holy-trinity-monastery-jordanville",
      "slug": "holy-trinity-monastery-jordanville",
      "name": "Holy Trinity Monastery",
      "jurisdiction": "roc",
      "jurisdictionLabel": "Russian Orthodox Church Outside of Russia",
      "communityType": "male",
      "city": "Jordanville",
      "state": "NY",
      "country": "US",
      "lat": 42.927203,
      "lng": -74.934526
    },
    {
      "id": "roc:ny-monastery-of-saint-dionysios-the-areopagite-st-james",
      "slug": "monastery-of-saint-dionysios-the-areopagite-st-james",
      "name": "Monastery of Saint Dionysios the Areopagite",
      "jurisdiction": "roc",
      "jurisdictionLabel": "Russian Orthodox Church Outside of Russia",
      "communityType": "male",
      "city": "St. James",
      "state": "NY",
      "country": "US",
      "lat": 40.883667,
      "lng": -73.165265
    },
    {
      "id": "roc:ny-novo-diveevo-russian-orthodox-convent-nanuet",
      "slug": "novo-diveevo-russian-orthodox-convent-nanuet",
      "name": "Novo Diveevo - Russian Orthodox Convent",
      "jurisdiction": "roc",
      "jurisdictionLabel": "Russian Orthodox Church Outside of Russia",
      "communityType": "female",
      "city": "Nanuet",
      "state": "NY",
      "country": "US",
      "lat": 41.111687,
      "lng": -74.023736
    },
    {
      "id": "roc:ny-the-savior-s-desert-treadwell-delhi",
      "slug": "the-savior-s-desert-treadwell-delhi",
      "name": "The Savior's Desert",
      "jurisdiction": "roc",
      "jurisdictionLabel": "Russian Orthodox Church in the U.S.",
      "communityType": "male",
      "city": "Treadwell/Delhi",
      "state": "NY",
      "country": "US",
      "lat": 42.3343392,
      "lng": -75.0437052
    },
    {
      "id": "roc:oh-monastery-of-st-john-the-theologian-hiram",
      "slug": "monastery-of-st-john-the-theologian-hiram",
      "name": "Monastery of St. John the Theologian",
      "jurisdiction": "roc",
      "jurisdictionLabel": "Russian Orthodox Church Outside of Russia",
      "communityType": "male",
      "city": "Hiram",
      "state": "OH",
      "country": "US",
      "lat": 41.3342936,
      "lng": -81.1794316
    },
    {
      "id": "roc:va-saint-demetrios-of-thessaloniki-skete-spotsylvania",
      "slug": "saint-demetrios-of-thessaloniki-skete-spotsylvania",
      "name": "Saint Demetrios of Thessaloniki Skete",
      "jurisdiction": "roc",
      "jurisdictionLabel": "Russian Orthodox Church Outside of Russia",
      "communityType": "male",
      "city": "Spotsylvania",
      "state": "VA",
      "country": "US",
      "lat": 38.2445019,
      "lng": -77.6713989
    },
    {
      "id": "roc:wa-all-merciful-savior-mission-and-monastery-maury-island",
      "slug": "all-merciful-savior-mission-and-monastery-maury-island",
      "name": "All-Merciful Savior Mission and Monastery",
      "jurisdiction": "roc",
      "jurisdictionLabel": "Russian Orthodox Church Outside of Russia",
      "communityType": "male",
      "city": "Maury Island",
      "state": "WA",
      "country": "US",
      "lat": 47.363551605,
      "lng": -122.454807472
    },
    {
      "id": "roc:wv-convent-of-the-nativity-of-the-virgin-mary-wayne",
      "slug": "convent-of-the-nativity-of-the-virgin-mary-wayne",
      "name": "Convent of the Nativity of the Virgin Mary",
      "jurisdiction": "roc",
      "jurisdictionLabel": "Russian Orthodox Church Outside of Russia",
      "communityType": "female",
      "city": "Wayne",
      "state": "WV",
      "country": "US",
      "lat": 38.245514357,
      "lng": -82.360502067
    },
    {
      "id": "roc:wv-holy-cross-hermitage-wayne",
      "slug": "holy-cross-hermitage-wayne",
      "name": "Holy Cross Hermitage",
      "jurisdiction": "roc",
      "jurisdictionLabel": "Russian Orthodox Church Outside of Russia",
      "communityType": "male",
      "city": "Wayne",
      "state": "WV",
      "country": "US",
      "lat": 38.2233508,
      "lng": -82.3545895
    },
    {
      "id": "rom:mi-protection-of-the-mother-of-god-monastery-allegan",
      "slug": "protection-of-the-mother-of-god-monastery-allegan",
      "name": "Protection of the Mother of God Monastery",
      "jurisdiction": "rom",
      "jurisdictionLabel": "Romanian Orthodox Metropolia of the Americas",
      "communityType": "female",
      "city": "Allegan",
      "state": "MI",
      "country": "US",
      "lat": 42.4331121,
      "lng": -85.9510119
    },
    {
      "id": "ser:ak-serbian-orthodox-church-st-nilus-skete-ouzinkie",
      "slug": "serbian-orthodox-church-st-nilus-skete-ouzinkie",
      "name": "Serbian Orthodox Church St. Nilus Skete",
      "jurisdiction": "ser",
      "jurisdictionLabel": "Serbian Orthodox Church in North, Central and South America",
      "communityType": "female",
      "city": "Ouzinkie",
      "state": "AK",
      "country": "US",
      "lat": 57.923400879,
      "lng": -152.50163269
    },
    {
      "id": "ser:ak-st-archangel-michael-skete-ouzinkie",
      "slug": "st-archangel-michael-skete-ouzinkie",
      "name": "St. Archangel Michael Skete",
      "jurisdiction": "ser",
      "jurisdictionLabel": "Serbian Orthodox Church in North, Central and South America",
      "communityType": "male",
      "city": "Ouzinkie",
      "state": "AK",
      "country": "US",
      "lat": 57.923400879,
      "lng": -152.50163269
    },
    {
      "id": "ser:ca-st-herman-of-alaska-monastery-platina",
      "slug": "st-herman-of-alaska-monastery-platina",
      "name": "St. Herman of Alaska Monastery",
      "jurisdiction": "ser",
      "jurisdictionLabel": "Serbian Orthodox Church in North, Central and South America",
      "communityType": "male",
      "city": "Platina",
      "state": "CA",
      "country": "US",
      "lat": 40.3589467,
      "lng": -122.89854
    },
    {
      "id": "ser:ca-st-xenia-skete-wildwood",
      "slug": "st-xenia-skete-wildwood",
      "name": "St. Xenia Skete",
      "jurisdiction": "ser",
      "jurisdictionLabel": "Serbian Orthodox Church in North, Central and South America",
      "communityType": "female",
      "city": "Wildwood",
      "state": "CA",
      "country": "US",
      "lat": 34.220729828,
      "lng": -118.891540527
    },
    {
      "id": "ser:il-protection-of-the-most-holy-theotokos-new-gracanica-monastery-third-lake",
      "slug": "protection-of-the-most-holy-theotokos-new-gracanica-monastery-third-lake",
      "name": "Protection of the Most Holy Theotokos--New Gracanica Monastery",
      "jurisdiction": "ser",
      "jurisdictionLabel": "Serbian Orthodox Church in North, Central and South America",
      "communityType": "male",
      "city": "Third Lake",
      "state": "IL",
      "country": "US",
      "lat": 42.373745,
      "lng": -88.004855
    },
    {
      "id": "ser:il-st-sava-monastery-libertyville",
      "slug": "st-sava-monastery-libertyville",
      "name": "St. Sava Monastery",
      "jurisdiction": "ser",
      "jurisdictionLabel": "Serbian Orthodox Church in North, Central and South America",
      "communityType": "male",
      "city": "Libertyville",
      "state": "IL",
      "country": "US",
      "lat": 42.33361,
      "lng": -87.950747
    },
    {
      "id": "ser:in-nativity-of-the-mother-of-god-new-carlisle",
      "slug": "nativity-of-the-mother-of-god-new-carlisle",
      "name": "Nativity of the Mother of God",
      "jurisdiction": "ser",
      "jurisdictionLabel": "Serbian Orthodox Church in North, Central and South America",
      "communityType": "female",
      "city": "New Carlisle",
      "state": "IN",
      "country": "US",
      "lat": 41.6881783,
      "lng": -86.502105
    },
    {
      "id": "ser:in-st-xenia-monastic-community-indianapolis",
      "slug": "st-xenia-monastic-community-indianapolis",
      "name": "St. Xenia Monastic Community",
      "jurisdiction": "ser",
      "jurisdictionLabel": "Serbian Orthodox Church in North, Central and South America",
      "communityType": "female",
      "city": "Indianapolis",
      "state": "IN",
      "country": "US",
      "lat": 39.792743,
      "lng": -86.155734
    },
    {
      "id": "ser:mo-st-pachomius-monastery-greenfield",
      "slug": "st-pachomius-monastery-greenfield",
      "name": "St. Pachomius Monastery",
      "jurisdiction": "ser",
      "jurisdictionLabel": "Serbian Orthodox Church in North, Central and South America",
      "communityType": "female",
      "city": "Greenfield",
      "state": "MO",
      "country": "US",
      "lat": 37.422424316,
      "lng": -93.838447571
    },
    {
      "id": "ser:oh-marcha-monastery-richfield",
      "slug": "marcha-monastery-richfield",
      "name": "Marcha Monastery",
      "jurisdiction": "ser",
      "jurisdictionLabel": "Serbian Orthodox Church in North, Central and South America",
      "communityType": "female",
      "city": "Richfield",
      "state": "OH",
      "country": "US",
      "lat": 41.2669398,
      "lng": -81.6740223
    },
    {
      "id": "ser:oh-st-mark-monastery-sheffield-lake",
      "slug": "st-mark-monastery-sheffield-lake",
      "name": "St. Mark Monastery",
      "jurisdiction": "ser",
      "jurisdictionLabel": "Serbian Orthodox Church in North, Central and South America",
      "communityType": "male",
      "city": "Sheffield Lake",
      "state": "OH",
      "country": "US",
      "lat": 41.471418,
      "lng": -82.114282
    }
  ]
}